[
    {
        "title": "CH Listing 1",
        "address": "303 Washington St. W",
        "phone": "(304) 555-5555",
        "website": "http:\/\/meshfresh.com",
        "zip": "25360",
        "coordinates": [
            38.361146,
            -81.6413254
        ],
        "listing_category": "take-it-easy",
        "description": "",
        "color": [
            "#4f6d6f"
        ]
    },
    {
        "title": "CH Listing 2",
        "address": "303 Washington St. W",
        "phone": "(304) 555-5555",
        "website": "http:\/\/meshfresh.com",
        "zip": "25360",
        "coordinates": [
            38.361146,
            -81.6413254
        ],
        "listing_category": "take-it-easy",
        "description": "",
        "color": [
            "#4f6d6f"
        ]
    },
    {
        "title": "CH LISTING 3",
        "address": "609 Tennessee Ave.",
        "phone": "(304) 555-5555",
        "website": "http:\/\/meshfresh.com",
        "zip": "25360",
        "coordinates": [
            38.3605031,
            -81.6422159
        ],
        "listing_category": "hunting-fishing",
        "description": "",
        "color": [
            "#54611e"
        ]
    },
    {
        "title": "ED Listing 1",
        "address": "303 Washington St. W",
        "phone": "(304) 555-5555",
        "website": "http:\/\/meshfresh.com",
        "zip": "25360",
        "coordinates": [
            38.361146,
            -81.6413254
        ],
        "listing_category": "hunting-fishing",
        "description": "",
        "color": [
            "#c16b05"
        ]
    },
    {
        "title": "ED Listing 2",
        "address": "303 Washington St. W",
        "phone": "(304) 555-5555",
        "website": "http:\/\/meshfresh.com",
        "zip": "25360",
        "coordinates": [
            38.361146,
            -81.6413254
        ],
        "listing_category": "take-it-easy",
        "description": "",
        "color": [
            "#c16b05"
        ]
    },
    {
        "title": "ED Listing 3",
        "address": "303 Washington St. W",
        "phone": "(304) 555-5555",
        "website": "http:\/\/meshfresh.com",
        "zip": "25360",
        "coordinates": [
            38.361146,
            -81.6413254
        ],
        "listing_category": "hunting-fishing",
        "description": "",
        "color": [
            "#c16b05"
        ]
    },
    {
        "title": "OI Listing 1",
        "address": "609 Tennessee Ave.",
        "phone": "304.555.5555",
        "website": "http:\/\/meshfresh.com",
        "zip": "25302",
        "coordinates": [
            38.3605031,
            -81.6422159
        ],
        "listing_category": "hike-bike-float",
        "description": "",
        "color": [
            "#4f6d6f"
        ]
    },
    {
        "title": "OI Listing 2",
        "address": "313 W Washington S",
        "phone": "304.555.5555",
        "website": "http:\/\/meshfresh.com",
        "zip": "25302",
        "coordinates": [
            38.3613868,
            -81.6412798
        ],
        "listing_category": "hike-bike-float",
        "description": "",
        "color": [
            "#4f6d6f"
        ]
    },
    {
        "title": "OI Listing 3",
        "address": "Kimsey Run Rd",
        "phone": "304.897.8500",
        "website": "http:\/\/lostrivercamping.com",
        "zip": "26810",
        "coordinates": [
            38.9737208,
            -78.7589558
        ],
        "listing_category": "hike-bike-float",
        "description": "",
        "color": [
            "#4f6d6f"
        ]
    },
    {
        "title": "SR Listing 1 FIXED",
        "address": "303 Washington St. W",
        "phone": "(304) 555-5555",
        "website": "http:\/\/meshfresh.com",
        "zip": "25360",
        "coordinates": [
            38.3610799,
            -81.6456206
        ],
        "listing_category": "hunting-fishing",
        "description": "",
        "color": [
            "#414242"
        ]
    },
    {
        "title": "SR Listing 3",
        "address": "Trout Pond Campground Rd",
        "phone": "(304) 555-5555",
        "website": "http:\/\/meshfresh.com",
        "zip": "26810",
        "coordinates": [
            38.9595152,
            -78.7416448
        ],
        "listing_category": "hunting-fishing",
        "description": "",
        "color": [
            "#414242"
        ]
    },
    {
        "title": "SR Listing 3",
        "address": "1062 Mill Gap Rd",
        "phone": "(304) 555-5555",
        "website": "http:\/\/meshfresh.com",
        "zip": "25360",
        "coordinates": [
            38.9569706,
            -78.7893939
        ],
        "listing_category": "hunting-fishing",
        "description": "",
        "color": [
            "#414242"
        ]
    },
    {
        "title": "STO Listing 1",
        "address": "303 Washington St. W",
        "phone": "(304) 555-5555",
        "website": "http:\/\/meshfresh.com",
        "zip": "25360",
        "coordinates": [
            38.361146,
            -81.6413254
        ],
        "listing_category": "take-it-easy",
        "description": "",
        "color": [
            "#853001"
        ]
    },
    {
        "title": "STO Listing 2",
        "address": "303 Washington St. W",
        "phone": "(304) 555-5555",
        "website": "http:\/\/meshfresh.com",
        "zip": "25360",
        "coordinates": [
            38.361146,
            -81.6413254
        ],
        "listing_category": "hunting-fishing",
        "description": "",
        "color": [
            "#853001"
        ]
    },
    {
        "title": "STO Listing 3",
        "address": "303 Washington St. W",
        "phone": "(304) 555-5555",
        "website": "http:\/\/meshfresh.com",
        "zip": "25360",
        "coordinates": [
            38.361146,
            -81.6413254
        ],
        "listing_category": "hunting-fishing",
        "description": "",
        "color": [
            "#853001"
        ]
    }
]